City_ID,City,Lat,Lng,Max Temp,Humidity,Cloudiness,Wind Speed,Country,Date
0,puerto ayora,-0.7393,-90.3518,302.13,87,78,3.13,EC,1701721894
1,alofi,-19.0595,-169.9187,301.09,74,75,4.12,NU,1701721895
2,hiratacho,35.4333,132.8167,279.16,66,100,2.75,JP,1701721896
3,papatowai,-46.5619,169.4708,284.6,59,5,3.25,NZ,1701721897
4,adamstown,-25.066,-130.1015,295.89,77,95,5.37,PN,1701721898
5,wailua homesteads,22.0669,-159.378,298.63,82,75,6.17,US,1701721899
6,hermanus,-34.4187,19.2345,290.69,71,100,2.56,ZA,1701721900
7,sao joao da barra,-21.6403,-41.0511,302.2,90,6,5.08,BR,1701721900
8,bayanhongor,46.7167,100.1167,256.01,76,1,2.74,MN,1701721901
9,puerto natales,-51.7236,-72.4875,291.4,48,20,13.38,CL,1701721902
10,vorgashor,67.5833,63.95,245.79,93,5,2.79,RU,1701721904
11,nadym,65.5333,72.5167,237.67,100,98,2.24,RU,1701721741
12,kigoma,-4.8769,29.6267,295.66,84,100,2.41,TZ,1701721905
13,bubaque,11.2833,-15.8333,301.48,69,5,5.74,GW,1701721906
14,bethel,41.3712,-73.414,282.88,68,75,3.09,US,1701721907
15,alice springs,-23.7,133.8833,291.9,72,0,0.0,AU,1701721616
16,grytviken,-54.2811,-36.5092,274.49,68,24,4.85,GS,1701721909
17,fortaleza,-3.7227,-38.5247,304.3,73,0,5.14,BR,1701721802
18,megion,61.0296,76.1136,242.16,98,99,1.45,RU,1701721911
19,st. john's,47.5649,-52.7093,274.25,95,100,8.94,CA,1701721850
20,new norfolk,-42.7826,147.0587,288.1,71,100,1.41,AU,1701721913
21,ushuaia,-54.8,-68.3,284.94,76,100,7.72,AR,1701721851
22,arno,60.1167,18.6333,269.7,92,86,2.97,SE,1701721914
23,kavaratti,10.5669,72.642,301.79,74,98,5.82,IN,1701721915
24,port-aux-francais,-49.35,70.2167,277.23,73,97,11.92,TF,1701721916
25,talnakh,69.4865,88.3972,243.26,85,99,0.7,RU,1701721917
26,blackmans bay,-43.0167,147.3167,287.44,85,93,1.6,AU,1701721918
27,dhidhdhoo,6.8833,73.1,301.17,78,100,5.06,MV,1701721919
28,keflavik,64.0049,-22.5624,276.39,87,75,10.29,IS,1701721920
29,gelendost,38.1208,31.0153,283.76,67,97,1.19,TR,1701721921
30,albany,42.6001,-73.9662,280.4,88,100,0.45,US,1701721646
31,aripuana,-9.1667,-60.6333,300.97,65,100,1.34,BR,1701721922
32,amungan,15.3652,119.9582,299.27,73,55,1.73,PH,1701721923
33,bocanda,7.0626,-4.4995,299.83,52,0,1.09,CI,1701721924
34,mahibadhoo,3.7833,72.9667,300.54,79,64,6.32,MV,1701721925
35,port alfred,-33.5906,26.891,289.36,88,31,0.89,ZA,1701721926
36,myeik,12.4333,98.6,297.65,87,85,1.9,MM,1701721929
37,anadyr,64.75,177.4833,253.43,84,40,6.0,RU,1701721631
38,longyearbyen,78.2186,15.6401,269.06,74,75,10.29,SJ,1701721769
39,yellowknife,62.456,-114.3525,260.44,85,100,3.09,CA,1701721383
40,hawaiian paradise park,19.5933,-154.9731,300.88,76,20,0.45,US,1701721932
41,isafjordur,66.0755,-23.124,272.87,83,100,3.13,IS,1701721933
42,stanley,54.868,-1.6985,278.02,95,75,6.17,GB,1701721934
43,kovur,14.4833,79.9833,297.64,97,100,5.91,IN,1701721935
44,college,64.8569,-147.8028,256.18,79,40,0.0,US,1701721788
45,thompson,55.7435,-97.8558,267.24,93,100,2.06,CA,1701721937
46,port elizabeth,-33.918,25.5701,291.31,81,0,4.63,ZA,1701721939
47,kirkwall,58.9848,-2.9587,276.18,81,40,2.06,GB,1701721940
48,conception bay south,47.4999,-52.9981,274.12,95,100,5.49,CA,1701721807
49,edinburgh of the seven seas,-37.0676,-12.3116,289.56,93,97,9.98,SH,1701721942
50,karaton,-6.3424,106.1045,296.86,94,100,1.03,ID,1701721943
51,bilibino,68.0546,166.4372,248.14,99,100,0.97,RU,1701721943
52,east london,-33.0153,27.9116,290.99,80,19,5.37,ZA,1701721813
53,san patricio,28.017,-97.5169,298.2,32,96,1.66,US,1701721945
54,mugia,43.1041,-9.2179,282.54,60,8,3.95,ES,1701721946
55,invercargill,-46.4,168.35,284.4,54,6,1.2,NZ,1701721947
56,jamestown,42.097,-79.2353,276.79,93,100,6.17,US,1701721788
57,hami,42.8,93.45,272.41,44,35,1.5,CN,1701721949
58,atafu village,-8.5421,-172.5159,302.19,75,100,6.19,TK,1701721950
59,stawell,-37.05,142.7667,290.8,52,22,1.17,AU,1701721951
60,mooloolaba,-26.6833,153.1167,298.75,79,26,3.57,AU,1701721952
61,udachny,66.4167,112.4,233.95,80,100,1.68,RU,1701721953
62,arvayheer,46.2639,102.775,265.07,49,30,7.51,MN,1701721954
63,tiksi,71.6872,128.8694,244.64,96,100,3.15,RU,1701721955
64,hamilton,39.1834,-84.5333,281.72,80,20,2.68,US,1701721314
65,taoudenni,22.6783,-3.9836,296.06,21,0,5.11,ML,1701721957
66,doctor juan leon mallorquin,-25.4,-55.2667,303.0,94,90,0.82,PY,1701721958
67,ciudad lazaro cardenas,17.9583,-102.2,301.89,64,100,4.11,MX,1701721959
68,klatovy,49.3955,13.2951,267.96,96,85,1.75,CZ,1701721960
69,kerikeri,-35.2268,173.9474,291.43,92,100,0.99,NZ,1701721960
70,buka,40.8108,69.1986,283.78,40,69,0.98,UZ,1701721961
71,tsiroanomandidy,-18.7667,46.0333,295.51,82,35,0.63,MG,1701721962
72,waitangi,-43.9535,-176.5597,286.94,63,100,1.34,NZ,1701721963
73,petropavlovsk-kamchatsky,53.0452,158.6483,267.48,76,100,3.58,RU,1701721964
74,port shepstone,-30.7414,30.455,294.68,86,100,6.73,ZA,1701721965
75,west island,-12.1568,96.8225,299.14,78,40,5.14,CC,1701721966
76,chibougamau,49.9168,-74.3659,262.94,67,0,2.57,CA,1701721964
77,kodiak,57.79,-152.4072,278.88,87,100,10.8,US,1701721925
78,san matias,-16.3667,-58.4,302.58,62,83,3.07,BO,1701721968
79,arkhangel'sk,64.5401,40.5433,259.21,84,100,0.0,RU,1701721969
80,iqaluit,63.7506,-68.5145,264.0,85,40,1.03,CA,1701721970
81,tolanaro,-25.0319,46.9987,297.19,73,75,7.2,MG,1701721971
82,lihue,21.9789,-159.3672,298.96,77,75,6.17,US,1701721972
83,bay harbor,30.1471,-85.6146,294.23,60,75,6.17,US,1701721973
84,cuito,-12.3833,16.9333,288.54,94,100,1.3,AO,1701721973
85,katsuura,35.1333,140.3,286.27,60,100,2.3,JP,1701721974
86,port lincoln,-34.7333,135.8667,291.5,77,100,2.43,AU,1701721975
87,mitu,1.1983,-70.1733,302.65,66,86,1.4,CO,1701721976
88,chegdomyn,51.1167,133.0167,255.35,99,98,0.86,RU,1701721977
89,arraial do cabo,-22.9661,-42.0278,302.07,70,20,4.12,BR,1701721979
90,sambava,-14.2667,50.1667,297.43,83,4,5.29,MG,1701721980
91,douentza,14.9951,-2.9517,298.23,15,6,2.67,ML,1701721980
92,mareeba,-17.0,145.4333,295.62,90,41,1.22,AU,1701721981
93,cumbum,9.7333,77.3,295.36,95,100,2.63,IN,1701721982
94,margaret river,-33.95,115.0667,287.02,78,100,2.65,AU,1701721983
95,kapit,2.0167,112.9333,296.04,100,100,0.66,MY,1701721984
96,kingston,17.997,-76.7936,304.68,67,20,5.66,JM,1701721854
97,yuzhno-kurilsk,44.0306,145.8556,277.25,68,8,5.48,RU,1701721987
98,klyuchi,52.2667,79.1667,265.57,75,100,5.09,RU,1701721988
99,sisimiut,66.9395,-53.6735,267.1,81,100,2.6,GL,1701721989
100,georgetown,5.4112,100.3354,300.9,89,20,3.09,MY,1701721939
101,fort mcmurray,56.7268,-111.381,269.92,80,0,1.54,CA,1701721837
102,margate,51.3813,1.3862,281.98,95,100,1.34,GB,1701721992
103,queenstown,-31.8976,26.8753,287.17,85,100,2.78,ZA,1701721993
104,barra de santo antonio,-9.4047,-35.5072,301.75,82,96,5.59,BR,1701721994
105,tamandare,-8.7597,-35.1047,299.61,82,73,4.4,BR,1701721857
106,sitka,57.0531,-135.33,282.09,61,100,10.29,US,1701721996
107,afaahiti,-17.75,-149.2833,302.08,82,77,8.26,PF,1701721997
108,atbasar,51.8,68.3333,274.3,85,100,8.8,KZ,1701721998
109,hammerfest,70.6634,23.6821,267.4,86,0,0.51,NO,1701721999
110,sipalay,9.75,122.5,297.64,90,90,1.85,PH,1701722000
111,okoneshnikovo,54.8377,75.0834,260.94,95,100,5.45,RU,1701722001
112,bredasdorp,-34.5322,20.0403,290.62,67,84,0.24,ZA,1701721989
113,weno,7.4515,151.8468,301.12,83,75,2.57,FM,1701722003
114,yangambi,0.8102,24.4336,292.53,98,98,0.59,CD,1701722004
115,villamontes,-21.25,-63.5,296.84,73,75,2.57,BO,1701722005
116,ad-damazin,11.7891,34.3592,302.55,31,4,3.13,SD,1701722005
117,la sarre,48.8002,-79.1996,264.08,90,56,2.15,CA,1701722006
118,punta arenas,-53.15,-70.9167,288.21,58,0,14.92,CL,1701722007
119,kapa'a,22.0752,-159.319,299.37,82,75,6.17,US,1701722008
120,shetpe,44.1667,52.1167,282.32,86,73,2.13,KZ,1701722009
121,labuan,5.2767,115.2417,299.35,94,20,0.0,MY,1701722010
122,manokwari,-0.8667,134.0833,298.86,84,100,2.0,ID,1701722011
123,fale old settlement,-9.3852,-171.2468,302.28,75,59,6.21,TK,1701722012
124,richards bay,-28.783,32.0377,296.43,81,100,1.24,ZA,1701721773
125,qui nhon,13.7667,109.2333,296.49,92,45,3.18,VN,1701722014
126,tazovsky,67.4667,78.7,236.38,100,26,1.09,RU,1701722014
127,puerto baquerizo moreno,-0.9,-89.6,301.7,65,20,6.69,EC,1701722015
128,menongue,-14.6585,17.691,290.82,93,85,1.52,AO,1701722016
129,holualoa,19.6228,-155.9522,299.01,78,40,5.66,US,1701722017
130,kogalym,62.2654,74.4791,239.5,100,49,1.91,RU,1701722019
131,hastings,50.8552,0.5729,280.11,57,100,5.6,GB,1701722020
132,da nang,16.0678,108.2208,298.14,88,75,1.03,VN,1701721883
133,ad darbasiyah,37.0728,40.652,285.72,48,83,1.46,SY,1701722022
134,tshabong,-26.05,22.45,303.26,22,97,6.06,BW,1701722023
135,geraldton,-28.7667,114.6,293.38,77,100,6.17,AU,1701722025
136,nuku'alofa,-21.1333,-175.2,301.34,78,20,5.66,TO,1701722026
137,lebu,-37.6167,-73.65,287.66,74,0,7.76,CL,1701722027
138,brigantine,39.4101,-74.3646,284.26,65,0,4.12,US,1701722028
139,saint-philippe,-21.3585,55.7679,294.92,77,52,2.54,RE,1701722029
140,karlskrona,56.1616,15.5866,270.4,87,22,2.43,SE,1701722030
141,unterseen,46.6853,7.8472,275.35,93,100,3.12,CH,1701722031
142,ulladulla,-35.35,150.4667,293.68,67,69,2.33,AU,1701722032
143,palmer,42.1584,-72.3287,282.9,68,75,3.09,US,1701722033
144,shar'ya,58.3686,45.5144,262.66,91,100,2.89,RU,1701722034
145,shchuchinsk,52.9333,70.2,270.92,94,100,9.61,KZ,1701722035
146,sinabang,2.4803,96.3801,299.48,85,100,2.26,ID,1701722036
147,olonkinbyen,70.9221,-8.7187,271.47,75,100,4.15,SJ,1701722036
148,iskateley,67.6803,53.1512,247.05,93,21,4.02,RU,1701722037
149,urambo,-5.0667,32.05,291.71,97,99,1.62,TZ,1701722038
150,ust'-ilimsk,58.0006,102.6619,253.48,90,100,6.2,RU,1701722039
151,carutapera,-1.195,-46.02,300.43,79,71,3.94,BR,1701722040
152,qaqortoq,60.7167,-46.0333,267.74,69,100,4.9,GL,1701721756
153,tsiombe,-25.3,45.4833,295.33,77,0,7.05,MG,1701722042
154,tura,25.5198,90.2201,292.09,74,94,1.75,IN,1701722043
155,sandnessjoen,66.0217,12.6316,269.21,86,75,4.12,NO,1701722044
156,nanping,26.645,118.1736,285.92,97,100,0.98,CN,1701722045
157,nagqu,31.5,92.0,264.86,94,100,0.5,CN,1701722046
158,kokopo,-4.352,152.2633,298.69,86,100,1.03,PG,1701722047
159,avarua,-21.2078,-159.775,300.18,74,75,3.09,CK,1701722049
160,kirakira,-10.4544,161.9205,299.2,92,100,4.96,SB,1701722050
161,urengoy,65.9667,78.3667,232.56,100,45,1.13,RU,1701722051
162,ugoofaaru,5.6667,73.0,301.66,76,61,5.99,MV,1701722052
163,jacobina,-11.1806,-40.5183,299.76,54,59,1.44,BR,1701722053
164,badger,64.8,-147.5333,256.13,80,40,0.0,US,1701722054
165,bamboo flat,11.7,92.7167,299.2,94,100,1.03,IN,1701722055
166,kegeyli shahar,42.7767,59.6078,281.2,50,100,3.79,UZ,1701722056
167,kyzyl-suu,42.3414,78.0056,275.67,53,7,3.92,KG,1701722057
168,plastun,44.7561,136.2939,268.86,83,4,2.96,RU,1701722058
169,khuzdar,27.7384,66.6434,285.36,29,0,1.48,PK,1701722059
170,acarau,-2.8856,-40.12,300.49,79,81,7.34,BR,1701722061
171,manadhoo,5.7667,73.3833,301.64,76,72,5.71,MV,1701722062
172,as sulayyil,20.4607,45.5779,291.29,43,0,3.41,SA,1701722063
173,saint-benoit,-21.038,55.7194,295.21,72,57,4.97,RE,1701722064
174,okakarara,-20.5833,17.4333,297.24,49,100,5.0,NA,1701722065
175,ilulissat,69.2167,-51.1,264.16,73,40,0.0,GL,1701722066
176,merizo village,13.2658,144.6691,300.46,90,97,8.1,GU,1701722067
177,bonyhad,46.2992,18.5302,272.62,64,100,4.01,HU,1701722068
178,zhezqazghan,47.7833,67.7667,274.45,55,99,3.82,KZ,1701721892
179,codrington,-38.2667,141.9667,288.22,84,84,1.48,AU,1701722070
180,minas de marcona,-15.2119,-75.1103,291.77,64,100,6.58,PE,1701722071
181,tahe,52.3333,124.7333,261.29,90,100,1.61,CN,1701722072
182,olenino,56.2092,33.4889,260.02,98,97,0.91,RU,1701722073
183,daru,-9.0763,143.2092,300.45,78,68,4.93,PG,1701722074
184,kailua-kona,19.6406,-155.9956,301.08,78,40,5.66,US,1701722075
185,norilsk,69.3535,88.2027,243.38,84,97,0.55,RU,1701722076
186,lompoc,34.6391,-120.4579,297.6,55,0,2.06,US,1701722077
187,al hamul,31.3115,31.1477,290.83,86,100,1.19,EG,1701722078
188,saint-francois,46.4154,3.9054,282.84,73,75,4.12,FR,1701722079
189,namibe,-15.1961,12.1522,296.8,87,100,2.43,AO,1701722079
190,tromso,69.6496,18.957,270.16,86,20,1.54,NO,1701722080
191,ulaangom,49.9811,92.0667,258.38,68,4,2.74,MN,1701722081
192,luena,-11.7833,19.9167,289.75,91,100,1.05,AO,1701722082
193,rawson,-43.3002,-65.1023,292.39,35,40,7.31,AR,1701721854
194,ribeira grande,38.5167,-28.7,290.8,67,75,5.66,PT,1701722084
195,dudinka,69.4058,86.1778,247.97,96,98,1.34,RU,1701722085
196,tefe,-3.3542,-64.7114,304.21,66,40,3.09,BR,1701722085
197,tweed heads,-28.1817,153.547,297.04,92,75,2.06,AU,1701722086
198,sechura,-5.5569,-80.8222,300.06,58,80,6.87,PE,1701722088
199,nema,57.5067,50.5011,262.0,94,95,3.88,RU,1701722090
200,kristiansund,63.1115,7.732,270.51,80,75,2.06,NO,1701722091
201,nova sintra,14.8667,-24.7167,295.96,77,33,5.99,CV,1701722092
202,ewo,-0.8725,14.8206,295.85,93,100,1.43,CG,1701722092
203,mount darwin,-16.7725,31.5838,295.72,34,14,0.99,ZW,1701722093
204,pacific grove,36.6177,-121.9166,294.01,69,0,5.81,US,1701722094
205,gadzhiyevo,69.2551,33.3362,262.78,94,84,2.11,RU,1701722095
206,kikwit,-5.041,18.8162,294.12,98,98,0.92,CD,1701722096
207,fort st. john,56.2499,-120.8529,277.09,60,75,6.69,CA,1701722097
208,kone,-21.0595,164.8658,300.59,65,100,1.84,NC,1701722098
209,tucuma,-0.1833,-50.05,298.67,87,100,2.03,BR,1701721805
210,carnarvon,-24.8667,113.6333,296.92,72,20,8.3,AU,1701722099
211,shakawe,-18.3667,21.85,301.71,28,58,2.17,BW,1701722100
212,island harbour,50.724,-1.2758,280.92,94,100,4.02,GB,1701722101
213,machico,32.7,-16.7667,295.38,91,75,6.17,PT,1701722102
214,constantia,44.1833,28.65,272.53,59,7,1.06,RO,1701721908
215,teguise,29.0605,-13.564,290.27,72,20,2.57,ES,1701722104
216,pallasovka,50.05,46.8833,271.64,73,100,3.69,RU,1701722105
217,mirnyy,62.5353,113.9611,233.28,65,100,4.02,RU,1701722106
218,najran,17.4924,44.1277,287.51,50,10,1.38,SA,1701722107
219,roccella ionica,38.322,16.4009,285.56,70,44,2.6,IT,1701722108
220,zilair,52.2332,57.4392,272.28,92,100,6.43,RU,1701722109
221,pithoragarh,29.5833,80.2167,278.95,70,61,1.37,IN,1701722110
222,machali,-34.1833,-70.6667,300.75,26,0,4.63,CL,1701722111
223,happy valley-goose bay,53.3168,-60.3315,262.32,79,75,2.06,CA,1701721813
224,bandon,51.7469,-8.7425,276.92,86,4,3.86,IE,1701722113
225,touros,-5.1989,-35.4608,299.94,80,28,4.8,BR,1701721961
226,flying fish cove,-10.4217,105.6791,297.97,88,75,4.12,CX,1701721987
227,broken hill,-31.95,141.4333,301.58,22,0,6.83,AU,1701722115
228,vilyuchinsk,52.9306,158.4028,268.3,86,58,1.9,RU,1701722116
229,ust'-kulom,61.6864,53.6902,259.49,93,100,3.62,RU,1701722117
230,port mathurin,-19.6833,63.4167,298.94,82,4,5.17,MU,1701722118
231,la foa,-21.7108,165.8276,299.67,67,100,1.9,NC,1701722119
232,tomatlan,19.9333,-105.25,298.43,70,100,1.44,MX,1701722120
233,manado,1.487,124.8455,298.35,88,54,1.11,ID,1701722121
234,tukrah,32.5341,20.5791,291.11,70,56,4.08,LY,1701722122
235,mar del plata,-38.0023,-57.5575,289.79,60,0,6.71,AR,1701722102
236,berezovyy,51.6667,135.7,258.44,92,27,1.62,RU,1701722124
237,ust-nera,64.5667,143.2,226.86,99,79,1.99,RU,1701722125
238,sao jose dos pinhais,-25.5347,-49.2064,298.34,56,75,6.69,BR,1701722126
239,henderson,36.0397,-114.9819,293.24,30,0,3.09,US,1701721967
240,karratha,-20.7377,116.8463,297.92,82,3,3.72,AU,1701722128
241,ivins,37.1686,-113.6794,289.29,36,5,0.45,US,1701722129
242,wajir,1.7471,40.0573,303.15,48,93,3.46,KE,1701722130
243,coquimbo,-29.9533,-71.3436,291.0,67,75,5.66,CL,1701721846
244,champerico,14.3,-91.9167,307.45,70,79,3.04,GT,1701722132
245,sault ste. marie,46.5168,-84.3333,272.46,71,0,5.66,CA,1701722033
246,zalingei,12.9096,23.4741,296.24,21,100,2.87,SD,1701722133
247,pangai,-19.8,-174.35,302.21,70,40,5.66,TO,1701722134
248,khanty-mansiysk,61.0042,69.0019,250.21,70,0,1.0,RU,1701722135
249,hafar al-batin,28.4328,45.9708,288.47,38,0,0.0,SA,1701722136
250,kalmunai,7.4167,81.8167,298.64,88,90,5.35,LK,1701722137
251,aasiaat,68.7098,-52.8699,261.97,90,100,2.6,GL,1701722138
252,al bawiti,28.3492,28.8659,289.35,63,0,1.99,EG,1701722139
253,naze,28.3667,129.4833,292.66,85,99,8.86,JP,1701722139
254,pahrump,36.2083,-115.9839,290.65,32,100,1.34,US,1701721965
255,kangding,30.0513,101.9603,277.11,84,61,0.92,CN,1701722141
256,nieuw amsterdam,5.8833,-55.0833,306.24,66,20,5.14,SR,1701722142
257,papao,-17.75,-149.55,302.97,81,91,9.57,PF,1701721847
258,nar'yan-mar,67.6713,53.087,247.1,93,21,4.02,RU,1701721997
259,dongsheng,39.8161,109.9776,272.21,40,0,5.57,CN,1701722145
260,khandyga,62.6667,135.6,222.59,100,68,0.38,RU,1701722146
261,lerwick,60.1545,-1.1494,276.15,66,74,3.46,GB,1701722146
262,pokachi,61.7198,75.3683,241.55,99,67,1.39,RU,1701722147
263,prado,-17.3411,-39.2208,299.23,84,1,6.53,BR,1701722148
264,shenjiamen,29.9576,122.298,284.16,78,23,5.88,CN,1701722149
265,geneina,13.45,22.45,296.18,17,100,4.12,SD,1701722150
266,saipan,15.1355,145.701,299.54,89,100,7.2,MP,1701722151
267,trinitapoli,41.3572,16.0874,281.47,57,100,2.8,IT,1701722151
268,ancud,-41.8697,-73.8203,288.1,70,20,1.93,CL,1701721925
269,palikir - national government center,6.9248,158.1611,299.56,89,100,2.57,FM,1701722153
270,clarksdale,34.2001,-90.5709,285.88,47,3,5.13,US,1701722154
271,remire-montjoly,4.9167,-52.2667,302.17,74,75,5.14,GF,1701722155
272,pokhara,28.2333,83.9833,287.71,73,89,1.91,NP,1701722156
273,al ghayzah,16.2079,52.176,298.39,65,42,2.33,YE,1701722157
274,snellville,33.8573,-84.0199,293.03,32,0,8.23,US,1701721982
275,north bend,43.4065,-124.2243,289.4,88,100,5.14,US,1701722158
276,summerside,46.3959,-63.7876,274.22,100,100,9.26,CA,1701722159
277,bodaybo,57.8506,114.1933,264.78,96,100,1.18,RU,1701722160
278,taro,-8.3862,115.28,295.15,97,100,0.61,ID,1701722161
279,tual,-5.6667,132.75,300.91,77,100,1.87,ID,1701722162
280,hengshui,37.7322,115.7011,275.52,39,0,1.21,CN,1701722163
281,kharkhorin,47.1975,102.8238,265.02,63,1,10.4,MN,1701722164
282,xilin hot,43.9667,116.0333,270.63,64,34,9.16,CN,1701722164
283,nykarleby,63.5228,22.5307,263.23,98,96,0.91,FI,1701722165
284,toamasina,-18.1667,49.3833,297.15,88,75,1.54,MG,1701722166
285,enewetak,11.3474,162.3373,300.86,73,100,9.59,MH,1701722167
286,la gi,10.6667,107.7833,297.1,89,63,2.26,VN,1701722168
287,maintirano,-18.0667,44.0167,299.8,79,3,2.72,MG,1701722169
288,san andres,12.5847,-81.7006,302.16,79,20,4.63,CO,1701722170
289,luderitz,-26.6481,15.1594,290.88,60,0,8.79,NA,1701722171
290,orchard homes,46.8633,-114.0484,284.42,85,75,1.54,US,1701722172
291,likiep,9.8251,169.3107,300.68,79,93,9.27,MH,1701722173
292,lesosibirsk,58.2358,92.4828,250.32,91,100,4.99,RU,1701722174
293,emerald,-23.5333,148.1667,296.67,87,0,5.3,AU,1701721886
294,verneuil-sur-avre,48.7395,0.9273,281.93,86,100,9.62,FR,1701722175
295,odda,60.0691,6.5457,270.25,95,13,2.07,NO,1701722176
296,vila franca do campo,37.7167,-25.4333,288.38,77,66,2.03,PT,1701722177
297,dubovskoye,47.4092,42.7575,273.43,98,100,4.43,RU,1701722178
298,isangel,-19.55,169.2667,300.47,74,73,3.83,VU,1701722179
299,port-vila,-17.7338,168.3219,300.04,79,100,6.39,VU,1701722180
300,xai-xai,-25.0519,33.6442,294.9,75,0,4.92,MZ,1701722181
301,shadegan,30.6497,48.6647,287.12,35,0,3.7,IR,1701722182
302,xining,36.6167,101.7667,272.17,39,12,0.2,CN,1701721899
303,thames,-37.1333,175.5333,290.22,88,100,2.63,NZ,1701722183
304,eregli,37.5133,34.0467,283.46,53,100,1.2,TR,1701722184
305,andergrove,-21.0833,149.1833,300.18,78,16,4.58,AU,1701722185
306,fort bragg,35.139,-79.006,293.61,36,0,5.66,US,1701722186
307,san antonio de pale,-1.4014,5.6325,299.92,81,100,3.14,GQ,1701722187
308,aykhal,66.0,111.5,235.25,100,99,2.86,RU,1701722003
309,launceston,-41.45,147.1667,287.12,100,100,2.57,AU,1701721946
310,el idrissia,34.4454,2.5275,283.21,39,97,2.25,DZ,1701722190
311,axim,4.8699,-2.2405,299.87,85,9,3.18,GH,1701722190
312,egersund,58.4513,5.9997,272.09,84,90,3.22,NO,1701722191
313,yelizovo,53.1873,158.3805,268.23,100,100,1.0,RU,1701722192
314,horta,38.5333,-28.6333,290.38,72,75,5.66,PT,1701722193
315,berlin,52.5244,13.4105,273.08,83,0,5.66,DE,1701721921
316,las tablas,7.7667,-80.2833,302.67,72,83,5.55,PA,1701722195
317,hadibu,12.65,54.0333,298.3,67,7,7.24,YE,1701722196
318,yung shue wan,22.2333,114.1167,294.05,76,90,0.45,HK,1701722197
319,uturoa,-16.7333,-151.4333,300.07,79,100,9.06,PF,1701722198
320,dali,25.7,100.1833,280.89,88,100,2.06,CN,1701722198
321,san ciro de acosta,21.6333,-99.8167,294.98,63,100,2.15,MX,1701722199
322,wamba,8.9333,8.6,298.66,32,51,1.91,NG,1701722200
323,thief river falls,48.1191,-96.1812,272.11,93,100,0.0,US,1701721929
324,odienne,9.51,-7.5692,298.38,29,8,1.12,CI,1701722202
325,bereeda,11.8704,51.0579,298.17,73,26,5.29,SO,1701722203
326,cabo san lucas,22.8909,-109.9124,303.49,58,0,3.09,MX,1701722141
327,dahme,51.8667,13.4333,272.04,86,100,4.81,DE,1701722205
328,alaghsas,17.0187,8.0168,297.33,15,31,5.22,NE,1701722205
329,pisco,-13.7,-76.2167,294.83,78,99,4.63,PE,1701722156
330,selfoss,63.9331,-20.9971,271.63,71,100,3.47,IS,1701722207
331,usinsk,65.9939,57.5281,247.08,94,34,3.58,RU,1701722208
332,pont rouge,48.8833,-72.0825,264.31,78,99,3.55,CA,1701722209
333,thinadhoo,0.5333,72.9333,300.51,79,85,2.58,MV,1701722210
334,wynyard,-41.0,145.7167,287.46,81,100,0.89,AU,1701722211
335,san sebastian de la gomera,28.0916,-17.1133,293.92,77,20,2.06,ES,1701722211
336,bembibre,42.6177,-6.4155,279.07,96,56,2.35,ES,1701722212
337,nouadhibou,20.931,-17.0347,294.14,73,100,3.6,MR,1701722213
338,san luis de la loma,17.2706,-100.8939,302.29,67,100,3.61,MX,1701722214
339,tocopilla,-22.092,-70.1979,294.58,66,21,4.14,CL,1701721915
340,valle aurina - ahrntal,46.9962,11.9799,268.31,91,100,3.09,IT,1701722216
341,cuyo,10.8525,121.0086,300.74,83,69,4.93,PH,1701722216
342,tarija,-21.5355,-64.7296,294.1,68,75,4.12,BO,1701722217
343,lone grove,34.1754,-97.2628,289.53,29,0,1.54,US,1701722218
344,palu,-0.8917,119.8707,297.03,95,81,1.25,ID,1701722219
345,pemangkat,1.1667,108.9667,297.84,92,100,3.01,ID,1701722220
346,sungai penuh,-2.0833,101.3833,290.82,90,99,1.32,ID,1701722221
347,es castell,39.8795,4.2854,287.53,67,20,4.63,ES,1701722222
348,vilyuysk,63.7553,121.6247,230.93,99,60,1.79,RU,1701722223
349,la passe,45.5549,-0.8967,283.14,61,95,10.73,FR,1701722224
350,shuangjiang,26.1547,109.7138,280.37,94,23,1.09,CN,1701722224
351,mount isa,-20.7333,139.5,296.02,60,3,2.06,AU,1701722225
352,qala i naw,34.9874,63.1289,284.84,17,0,1.42,AF,1701722226
353,zhangye,38.9342,100.4517,271.22,40,38,1.04,CN,1701722227
354,fortuna,40.5982,-124.1573,289.78,90,100,7.2,US,1701722228
355,bayanaul,50.7889,75.6956,268.01,81,98,4.34,KZ,1701722229
356,meraux,29.933,-89.9498,293.16,55,0,4.12,US,1701722230
357,tursunzoda,38.5144,68.2333,285.17,28,10,3.0,TJ,1701722231
358,gwadar,25.1216,62.3254,297.34,34,49,4.71,PK,1701722232
359,igarka,67.4667,86.5833,232.15,99,51,1.59,RU,1701722232
360,chebba,35.2372,11.115,288.41,55,99,8.74,TN,1701722234
361,utrik,11.2278,169.8474,300.35,77,79,8.12,MH,1701722235
362,longview,32.5007,-94.7405,291.12,20,0,3.09,US,1701722235
363,safi,32.1667,-8.8333,289.07,51,97,1.35,MA,1701722236
364,aswan,24.0934,32.907,300.47,34,93,3.64,EG,1701722237
365,halifax,44.6453,-63.5724,274.54,93,75,4.63,CA,1701721638
366,kota belud,6.351,116.4305,297.92,88,100,1.27,MY,1701722239
367,northam,51.0333,-4.2167,283.52,85,98,10.82,GB,1701722241
368,lazaro cardenas,17.9583,-102.2,301.89,64,100,4.11,MX,1701721959
369,necochea,-38.5473,-58.7368,290.05,39,0,6.76,AR,1701722168
370,nemuro,43.3236,145.575,277.55,77,1,6.3,JP,1701722243
371,vadso,70.0744,29.7487,266.24,86,40,3.09,NO,1701722244
372,san jose del guaviare,2.5729,-72.6459,301.54,71,100,1.08,CO,1701722245
373,ribeira brava,32.65,-17.0667,295.38,94,99,4.1,PT,1701722246
374,khabary,53.6259,79.5345,262.61,91,100,4.07,RU,1701722247
375,anuradhapura,8.3565,80.4173,297.66,90,100,3.92,LK,1701722248
376,nanga eboko,4.6833,12.3667,294.13,87,100,1.03,CM,1701722249
377,al wajh,26.2455,36.4525,298.12,73,0,2.06,SA,1701722250
378,kili,5.6439,169.1211,301.06,80,100,8.08,MH,1701722250
379,ranikhet,29.65,79.4167,278.44,84,71,1.59,IN,1701722251
380,whitehorse,60.7161,-135.0538,265.43,85,75,5.14,CA,1701722211
381,akureyri,65.6835,-18.0878,261.11,85,0,1.54,IS,1701722253
382,chernyshevskiy,63.0128,112.4714,234.46,97,88,2.45,RU,1701722254
383,ende,-8.8432,121.6623,299.42,88,74,0.81,ID,1701722256
384,dauphin,51.1494,-100.0502,268.23,80,0,1.03,CA,1701722257
385,sabang,5.8933,95.3214,300.21,80,100,4.4,ID,1701722257
386,barmer,25.75,71.3833,291.13,30,0,3.67,IN,1701722259
387,odiongan,12.4017,121.9919,299.54,86,36,1.78,PH,1701722260
388,xiaoweizhai,26.1903,107.5125,281.87,95,61,0.85,CN,1701722261
389,antofagasta,-23.65,-70.4,293.75,66,5,4.02,CL,1701722262
390,kendari,-3.945,122.4989,297.31,94,21,1.41,ID,1701722263
391,bengkulu,-3.8004,102.2655,297.04,93,100,1.6,ID,1701722264
392,bahia blanca,-38.7196,-62.2724,299.16,13,0,3.58,AR,1701722261
393,mercedes,-34.6515,-59.4307,293.17,35,71,5.71,AR,1701722084
394,redencao,-4.2258,-38.7306,300.55,70,21,2.82,BR,1701722266
395,ghanzi,-21.5667,21.7833,302.68,17,79,3.04,BW,1701722267
396,sipote,47.4667,27.2167,273.11,76,9,2.53,RO,1701722268
397,barro,-6.7167,-38.8667,304.83,31,22,1.77,BR,1701722269
398,the pas,53.8251,-101.2541,266.16,93,100,1.03,CA,1701722270
399,carsamba,41.1989,36.7219,285.01,100,75,2.06,TR,1701722270
400,mariehamn,60.0973,19.9348,269.72,92,100,0.51,AX,1701722271
401,yeed,4.55,43.0333,300.53,39,90,1.94,SO,1701722272
402,fisterra,42.9049,-9.2629,282.45,58,9,4.48,ES,1701722273
403,cockburn town,21.4612,-71.1419,300.13,65,40,4.12,TC,1701722274
404,dryden,49.7833,-92.7503,272.31,80,100,1.03,CA,1701722275
405,sassandra,4.95,-6.0833,299.72,87,2,2.71,CI,1701722058
406,uliastay,47.7417,96.8444,254.8,91,11,2.81,MN,1701722276
407,jiaojiang,28.6803,121.4428,283.15,92,1,2.1,CN,1701722277
408,haiku-pauwela,20.9219,-156.3051,300.47,64,20,7.72,US,1701722278
409,san antonio oeste,-40.7319,-64.9477,298.84,18,0,2.87,AR,1701722279
410,vangaindrano,-23.35,47.6,296.15,78,100,1.99,MG,1701722280
411,zarichne,51.8126,26.129,268.61,95,100,3.1,UA,1701722281
412,shimoda,34.6667,138.95,280.43,61,100,1.16,JP,1701722282
413,yashkino,55.8736,85.4265,251.31,96,98,2.09,RU,1701722283
414,bakanas,44.8081,76.2772,276.56,67,47,2.96,KZ,1701722283
415,porto novo,6.4965,2.6036,302.05,81,0,3.24,BJ,1701722284
416,laguna,38.421,-121.4238,292.2,71,0,1.54,US,1701722285
417,mount gambier,-37.8333,140.7667,287.88,86,36,0.56,AU,1701722286
418,ilha de mocambique,-15.0342,40.7358,299.88,72,80,2.38,MZ,1701722287
419,chonchi,-42.6128,-73.8092,291.71,56,27,2.88,CL,1701722288
420,vakarai,55.6035,23.8213,267.44,96,59,2.99,LT,1701722289
421,montego bay,18.4712,-77.9188,303.59,74,20,7.72,JM,1701722040
422,tazacorte,28.629,-17.9293,292.69,96,40,2.06,ES,1701722291
423,tilcara,-23.5776,-65.3509,283.18,89,92,2.05,AR,1701722292
424,zaigrayevo,51.8336,108.2703,267.16,75,78,7.54,RU,1701722293
425,arauca,7.0847,-70.7591,305.06,51,86,1.96,CO,1701722277
426,cold springs,39.6802,-119.9766,287.09,44,0,2.06,US,1701722295
427,byron bay,-28.65,153.6167,294.66,79,36,2.85,AU,1701722296
428,mount pearl,47.5166,-52.7813,273.79,96,100,6.69,CA,1701722178
429,dingcheng,32.1272,115.0394,281.02,47,0,3.45,CN,1701722297
430,mogocha,53.7333,119.7667,260.75,96,100,1.08,RU,1701722122
431,celendin,-6.8703,-78.1517,295.44,64,100,3.69,PE,1701722299
432,sant lluis,39.8526,4.2594,287.37,67,20,4.63,ES,1701722300
433,kapuskasing,49.4169,-82.4331,268.2,58,75,3.6,CA,1701722301
434,gypsum,39.6469,-106.9517,281.46,49,20,7.72,US,1701722302
435,jabor,5.921,169.6434,301.3,80,100,8.79,MH,1701722303
436,revda,56.801,59.9303,269.68,87,98,6.61,RU,1701722304
437,tselinnoye,53.0833,85.6667,263.11,94,100,1.24,RU,1701722305
438,vernon,50.2581,-119.2691,277.38,89,100,1.54,CA,1701722306
439,aral,40.5156,81.2636,275.22,38,1,1.07,CN,1701722307
440,quezon,7.7303,125.0989,295.26,90,94,0.93,PH,1701722308
441,itaituba,-4.2761,-55.9836,300.24,74,100,10.8,BR,1701722309
442,fuglafjordur,62.244,-6.814,275.41,63,100,7.12,FO,1701722310
443,aktau,43.65,51.2,281.47,82,100,3.3,KZ,1701722311
444,oamaru,-45.0784,170.9801,285.58,81,94,5.98,NZ,1701722312
445,hithadhoo,-0.6,73.0833,300.34,80,50,2.42,MV,1701722313
446,lubango,-14.9172,13.4925,288.69,96,96,1.13,AO,1701722314
447,callao,-12.0667,-77.15,295.31,68,75,4.63,PE,1701722315
448,severo-yeniseyskiy,60.3725,93.0408,246.65,97,100,2.74,RU,1701722315
449,rongelap,11.1635,166.8941,300.88,72,90,8.65,MH,1701722316
450,oranjemund,-28.55,16.4333,289.26,86,1,7.76,NA,1701722317
451,keetmanshoop,-26.5833,18.1333,299.66,12,12,6.17,NA,1701722318
452,tangalle,6.024,80.7911,298.37,92,99,3.09,LK,1701722319
453,taksimo,56.3444,114.8794,259.53,96,100,0.27,RU,1701722320
454,satsuma,30.8532,-88.0561,293.87,49,98,3.29,US,1701722056
455,bangassou,4.7413,22.8184,293.07,97,53,0.76,CF,1701722321
456,andong,36.5656,128.725,272.44,69,88,0.96,KR,1701722322
457,'ain benian,36.8028,2.9219,286.18,73,100,3.65,DZ,1701722323
458,alta,69.9689,23.2717,264.37,86,0,2.57,NO,1701722264
459,yaren,-0.5472,166.916,301.2,78,92,6.99,NR,1701722325
460,erenhot,43.6475,111.9767,271.12,62,2,7.72,CN,1701722326
461,tyukhtet,56.5389,89.3011,251.47,92,100,4.74,RU,1701722327
462,calvinia,-31.4707,19.776,288.34,49,0,2.71,ZA,1701722328
463,tanout,14.9709,8.8879,296.91,16,100,4.93,NE,1701722329
464,seelbach,48.3167,7.95,278.73,92,75,3.6,DE,1701722330
465,nikolayevsk-on-amure,53.1406,140.73,256.11,99,72,1.52,RU,1701722122
466,laredo,27.5064,-99.5075,298.31,36,0,2.57,US,1701722206
467,amol,36.4696,52.3507,288.49,42,0,1.22,IR,1701722333
468,namsos,64.4662,11.4957,268.18,85,100,8.23,NO,1701722334
469,quellon,-43.1167,-73.6167,286.76,74,4,5.89,CL,1701722334
470,itoman,26.1247,127.6694,295.36,88,75,6.69,JP,1701722335
471,zadar,44.1197,15.2422,278.49,65,20,2.06,HR,1701722336
472,araguaina,-7.1911,-48.2072,302.74,56,100,1.83,BR,1701722338
473,rodolfo sanchez taboada,31.7167,-116.5667,292.09,62,90,0.89,MX,1701722339
474,abu jibeha,11.4562,31.2285,301.24,27,14,3.74,SD,1701722340
475,trondheim,63.4305,10.3951,268.2,90,31,1.84,NO,1701722160
476,zhosaly,45.4878,64.0781,280.46,65,100,4.46,KZ,1701722341
477,morehead city,34.7229,-76.726,291.52,77,0,5.66,US,1701722342
478,ginebra,46.2022,6.1457,279.4,96,75,1.34,CH,1701722343
479,johnstown,40.3267,-78.922,279.43,74,100,4.12,US,1701722044
480,longonjo,-12.9067,15.2533,290.85,96,99,1.06,AO,1701722049
481,klaksvik,62.2266,-6.589,275.66,64,100,7.79,FO,1701722346
482,kutum,14.2,24.6667,293.05,15,99,3.81,SD,1701722347
483,labis,2.385,103.021,296.7,97,97,0.28,MY,1701722348
484,gagarin,55.5529,34.9954,260.33,97,97,2.07,RU,1701722349
485,balabac,7.9868,117.0645,299.96,84,100,3.55,PH,1701722349
486,karatas,36.582,35.3701,292.23,58,100,6.19,TR,1701722350
487,yorkton,51.2167,-102.4677,268.06,86,20,1.03,CA,1701722213
488,dunedin,-45.8742,170.5036,283.6,84,93,2.24,NZ,1701722306
489,castillos,-34.1667,-53.8333,289.83,55,0,4.24,UY,1701722353
490,port douglas,-16.4833,145.4667,299.75,82,60,3.04,AU,1701722354
491,vorkuta,67.5,64.0,246.0,93,5,2.83,RU,1701722355
492,laramie,41.3114,-105.5911,281.36,39,20,11.83,US,1701722356
493,susuman,62.7833,148.1667,230.36,100,98,0.89,RU,1701722356
494,calca,-13.3333,-71.95,295.79,71,98,3.4,PE,1701722358
495,lidkoping,58.5052,13.1577,267.16,97,93,1.38,SE,1701722359
496,saudarkrokur,65.7461,-19.6394,269.82,69,73,2.98,IS,1701722360
497,qa'en,33.7265,59.1844,281.55,22,0,1.94,IR,1701722361
498,zaio,34.9428,-2.7329,287.14,61,96,1.19,MA,1701722362
499,paka,4.6374,103.4368,298.12,91,88,1.03,MY,1701722363
500,karacoban,39.3492,42.1124,275.36,67,100,0.77,TR,1701722364
501,polyarnyy,69.1989,33.4478,263.37,92,78,2.33,RU,1701722365
502,mana,5.6592,-53.7767,300.21,81,16,4.64,GF,1701722366
503,rio grande,-32.035,-52.0986,295.21,64,30,7.3,BR,1701722350
504,port saint john's,-31.6229,29.5448,293.16,89,100,4.69,ZA,1701722368
505,coahuayana de hidalgo,18.7,-103.6583,303.58,50,100,1.64,MX,1701722369
506,contramaestre,20.2978,-76.2414,302.02,59,31,3.26,CU,1701722370
507,keminmaa,65.8596,24.8228,258.02,85,0,0.51,FI,1701722371
508,sirpur,19.4833,79.6,295.11,83,100,2.44,IN,1701722372
509,guadalupe y calvo,26.1,-106.9667,290.64,15,0,3.42,MX,1701722373
510,gidam,18.9833,81.4,294.42,79,98,2.45,IN,1701722374
511,la leonesa,-27.0379,-58.7035,294.16,87,100,3.22,AR,1701722375
512,linxia chengguanzhen,35.6003,103.2064,274.27,42,22,1.0,CN,1701722376
513,mumbai,19.0144,72.8479,300.14,83,20,2.57,IN,1701722109
514,juegang,32.3174,121.1855,280.54,67,0,2.45,CN,1701722377
515,bandar lampung,-5.4254,105.258,297.25,91,100,1.16,ID,1701722378
516,bereket,39.2446,55.5154,286.92,33,4,0.35,TM,1701722379
517,lata,40.1629,-8.3327,286.93,77,91,1.93,PT,1701722380
518,lodwar,3.1191,35.5973,302.75,36,0,6.34,KE,1701722381
519,tyre,33.2733,35.1939,296.6,54,87,1.34,LB,1701722383
520,suva,-18.1416,178.4415,299.86,83,40,0.0,FJ,1701722383
521,turbat,26.0023,63.044,293.81,20,1,4.53,PK,1701722384
522,mil'kovo,55.6078,37.7956,263.88,99,25,2.5,RU,1701722385
523,wuwei,37.9281,102.6414,273.64,34,0,0.33,CN,1701722386
524,sur,22.5667,59.5289,297.68,61,4,4.12,OM,1701722387
525,novodvinsk,64.4165,40.8122,259.01,97,98,0.63,RU,1701722388
526,el fasher,13.6279,25.3494,296.49,13,100,3.64,SD,1701722389
527,hilo,19.7297,-155.09,301.0,65,20,1.34,US,1701722299
528,teluk nibung,3.001,99.8164,298.44,92,100,2.51,ID,1701722391
529,murud,18.3258,72.965,297.86,67,90,2.12,IN,1701722392
530,brisas de zicatela,15.8369,-97.0419,303.44,54,0,3.09,MX,1701722393
531,juba,4.8517,31.5825,298.94,63,49,1.63,SS,1701722394
532,bac lieu,9.285,105.7244,298.56,88,100,5.09,VN,1701722395
533,brookings,44.3114,-96.7984,277.62,83,100,4.12,US,1701722396
534,katsuren-haebaru,26.3369,127.8719,295.36,88,75,5.66,JP,1701722396
535,nogliki,51.8333,143.1667,263.34,96,98,1.79,RU,1701722397
536,worland,44.0169,-107.9554,279.79,74,75,3.09,US,1701722398
537,botshabelo,-29.2702,26.7052,294.8,44,52,0.85,ZA,1701722399
538,maydanshakhr,34.3956,68.8662,276.98,24,0,1.57,AF,1701722400
539,lumut,4.2323,100.6298,299.03,88,95,1.31,MY,1701722401
540,tevriz,57.509,72.4042,256.57,93,100,4.1,RU,1701722402
541,guayaramerin,-10.8368,-65.3614,300.62,79,98,1.22,BO,1701722403
542,sao jose da coroa grande,-8.8978,-35.1478,299.69,82,80,4.9,BR,1701722404
543,banff,51.1762,-115.5698,276.72,55,98,3.09,CA,1701722405
544,sittwe,20.15,92.9,297.82,74,100,2.34,MM,1701722406
545,newman,37.3138,-121.0208,289.9,11,67,2.35,US,1701722407
546,wabern,51.1,9.35,272.84,100,100,1.54,DE,1701722408
547,kerema,-7.9631,145.7785,298.96,89,99,1.25,PG,1701722409
548,brokopondo,4.75,-55.1667,303.93,57,32,1.45,SR,1701722410
549,swakopmund,-22.6833,14.5333,290.62,78,22,0.89,NA,1701722236
550,agios nikolaos,35.1914,25.7133,290.24,73,1,1.02,GR,1701722411
551,colonia,50.9333,6.95,276.9,90,75,5.14,DE,1701722412
552,mejit,10.2753,170.8646,300.62,79,38,9.65,MH,1701722414
553,marquette,46.5333,-87.6335,274.4,69,35,0.89,US,1701722415
554,pechory,57.8164,27.6119,258.85,99,96,1.03,RU,1701722416
555,sao vicente,-23.9631,-46.3919,300.25,51,100,2.06,BR,1701722416
556,sona,45.4388,10.8255,275.34,94,75,0.51,IT,1701722417
557,taroa,8.7058,171.2275,300.9,80,85,9.44,MH,1701722418
558,bako,5.7833,36.5667,292.85,60,8,1.73,ET,1701722420
559,springbok,-29.6643,17.8865,288.11,46,0,2.2,ZA,1701722421
560,abasolo,20.45,-101.5167,288.93,66,100,1.81,MX,1701722422
561,robertsport,6.7533,-11.3686,300.7,81,26,3.59,LR,1701722423
